{
   "type": "FeatureCollection",
   "features": [
  {
    "type": "Feature",
    "geometry": {
       "type": "Point",
       "coordinates":  [ -68.0493,44.454 ]
    },
    "properties": {
    "Name":" Acadia"
    }
  },
  {
    "type": "Feature",
    "geometry": {
       "type": "Point",
       "coordinates":  [ -109.565,38.77 ]
    },
    "properties": {
    "Name":" Arches"
    }
  },
  {
    "type": "Feature",
    "geometry": {
       "type": "Point",
       "coordinates":  [ -102.4343,43.6504 ]
    },
    "properties": {
    "Name":" Badlands"
    }
  },
  {
    "type": "Feature",
    "geometry": {
       "type": "Point",
       "coordinates":  [ -103.2432,29.3816 ]
    },
    "properties": {
    "Name":" Big Bend"
    }
  },
  {
    "type": "Feature",
    "geometry": {
       "type": "Point",
       "coordinates":  [ -80.2619,25.442 ]
    },
    "properties": {
    "Name":" Biscayne"
    }
  },
  {
    "type": "Feature",
    "geometry": {
       "type": "Point",
       "coordinates":  [ -112.1967,37.5548 ]
    },
    "properties": {
    "Name":" Bryce Canyon"
    }
  },
  {
    "type": "Feature",
    "geometry": {
       "type": "Point",
       "coordinates":  [ -109.966,38.0252 ]
    },
    "properties": {
    "Name":" Canyonlands"
    }
  },
  {
    "type": "Feature",
    "geometry": {
       "type": "Point",
       "coordinates":  [ -111.144,37.986 ]
    },
    "properties": {
    "Name":" Capitol Reef"
    }
  },
  {
    "type": "Feature",
    "geometry": {
       "type": "Point",
       "coordinates":  [ -104.4094,32.1648 ]
    },
    "properties": {
    "Name":" Carlsbad Caverns"
    }
  },
  {
    "type": "Feature",
    "geometry": {
       "type": "Point",
       "coordinates":  [ -119.7425,34.0394 ]
    },
    "properties": {
    "Name":" Channel Islands"
    }
  },
  {
    "type": "Feature",
    "geometry": {
       "type": "Point",
       "coordinates":  [ -122.0824,42.9173 ]
    },
    "properties": {
    "Name":" Crater Lake"
    }
  },
  {
    "type": "Feature",
    "geometry": {
       "type": "Point",
       "coordinates":  [ -116.4117,36.3027 ]
    },
    "properties": {
    "Name":" Death Valley"
    }
  },
  {
    "type": "Feature",
    "geometry": {
       "type": "Point",
       "coordinates":  [ -81.7862,24.6384 ]
    },
    "properties": {
    "Name":" Dry Tortugas"
    }
  },
  {
    "type": "Feature",
    "geometry": {
       "type": "Point",
       "coordinates":  [ -80.8934,25.4028 ]
    },
    "properties": {
    "Name":" Everglades"
    }
  },
  {
    "type": "Feature",
    "geometry": {
       "type": "Point",
       "coordinates":  [ -113.8672,48.616 ]
    },
    "properties": {
    "Name":" Glacier"
    }
  },
  {
    "type": "Feature",
    "geometry": {
       "type": "Point",
       "coordinates":  [ -113.1975,36.1632 ]
    },
    "properties": {
    "Name":" Grand Canyon - North Rim"
    }
  },
  {
    "type": "Feature",
    "geometry": {
       "type": "Point",
       "coordinates":  [ -112.11762,36.06502 ]
    },
    "properties": {
    "Name":" Grand Canyon - South Rim"
    }
  },
  {
    "type": "Feature",
    "geometry": {
       "type": "Point",
       "coordinates":  [ -110.3824,43.9052 ]
    },
    "properties": {
    "Name":" Grand Teton"
    }
  },
  {
    "type": "Feature",
    "geometry": {
       "type": "Point",
       "coordinates":  [ -114.1513,38.868 ]
    },
    "properties": {
    "Name":" Great Basin"
    }
  },
  {
    "type": "Feature",
    "geometry": {
       "type": "Point",
       "coordinates":  [ -83.5469,35.6536 ]
    },
    "properties": {
    "Name":" Great Smoky Mountains"
    }
  },
  {
    "type": "Feature",
    "geometry": {
       "type": "Point",
       "coordinates":  [ -104.8835,31.812 ]
    },
    "properties": {
    "Name":" Guadalupe Mountains"
    }
  },
  {
    "type": "Feature",
    "geometry": {
       "type": "Point",
       "coordinates":  [ -93.0221,34.3796 ]
    },
    "properties": {
    "Name":" Hot Springs"
    }
  },
  {
    "type": "Feature",
    "geometry": {
       "type": "Point",
       "coordinates":  [ -88.8917,47.9624 ]
    },
    "properties": {
    "Name":" Isle Royale"
    }
  },
  {
    "type": "Feature",
    "geometry": {
       "type": "Point",
       "coordinates":  [ -116.0089,33.9529 ]
    },
    "properties": {
    "Name":" Joshua Tree"
    }
  },
  {
    "type": "Feature",
    "geometry": {
       "type": "Point",
       "coordinates":  [ -118.3574,36.8481 ]
    },
    "properties": {
    "Name":" Kings Canyon"
    }
  },
  {
    "type": "Feature",
    "geometry": {
       "type": "Point",
       "coordinates":  [ -121.4461,40.4579 ]
    },
    "properties": {
    "Name":" Lassen Volcanic"
    }
  },
  {
    "type": "Feature",
    "geometry": {
       "type": "Point",
       "coordinates":  [ -86.1839,37.104 ]
    },
    "properties": {
    "Name":" Mammoth Cave"
    }
  },
  {
    "type": "Feature",
    "geometry": {
       "type": "Point",
       "coordinates":  [ -108.3871,37.1824 ]
    },
    "properties": {
    "Name":" Mesa Verde"
    }
  },
  {
    "type": "Feature",
    "geometry": {
       "type": "Point",
       "coordinates":  [ -121.4762,46.7981 ]
    },
    "properties": {
    "Name":" Mount Rainier"
    }
  },
  {
    "type": "Feature",
    "geometry": {
       "type": "Point",
       "coordinates":  [ -121.0219,48.4004 ]
    },
    "properties": {
    "Name":" North Cascades"
    }
  },
  {
    "type": "Feature",
    "geometry": {
       "type": "Point",
       "coordinates":  [ -123.5455,47.6948 ]
    },
    "properties": {
    "Name":" Olympic"
    }
  },
  {
    "type": "Feature",
    "geometry": {
       "type": "Point",
       "coordinates":  [ -109.7964,34.8892 ]
    },
    "properties": {
    "Name":" Petrified Forest"
    }
  },
  {
    "type": "Feature",
    "geometry": {
       "type": "Point",
       "coordinates":  [ -123.9452,41.4771 ]
    },
    "properties": {
    "Name":" Redwood"
    }
  },
  {
    "type": "Feature",
    "geometry": {
       "type": "Point",
       "coordinates":  [ -105.8307,40.3576 ]
    },
    "properties": {
    "Name":" Rocky Mountain"
    }
  },
  {
    "type": "Feature",
    "geometry": {
       "type": "Point",
       "coordinates":  [ -111.1309,32.2432 ]
    },
    "properties": {
    "Name":" Saguaro"
    }
  },
  {
    "type": "Feature",
    "geometry": {
       "type": "Point",
       "coordinates":  [ -118.552,36.5231 ]
    },
    "properties": {
    "Name":" Sequoia"
    }
  },
  {
    "type": "Feature",
    "geometry": {
       "type": "Point",
       "coordinates":  [ -78.7041,38.2604 ]
    },
    "properties": {
    "Name":" Shenandoah"
    }
  },
  {
    "type": "Feature",
    "geometry": {
       "type": "Point",
       "coordinates":  [ -103.2491,47.3352 ]
    },
    "properties": {
    "Name":" Theodore Roosevelt"
    }
  },
  {
    "type": "Feature",
    "geometry": {
       "type": "Point",
       "coordinates":  [ -93.0169,48.0996 ]
    },
    "properties": {
    "Name":" Voyageurs"
    }
  },
  {
    "type": "Feature",
    "geometry": {
       "type": "Point",
       "coordinates":  [ -102.8731,43.4348 ]
    },
    "properties": {
    "Name":" Wind Cave"
    }
  },
  {
    "type": "Feature",
    "geometry": {
       "type": "Point",
       "coordinates":  [ -110.355,44.5716 ]
    },
    "properties": {
    "Name":" Yellowstone"
    }
  },
  {
    "type": "Feature",
    "geometry": {
       "type": "Point",
       "coordinates":  [ -119.6195,37.8231 ]
    },
    "properties": {
    "Name":" Yosemite"
    }
  },
  {
    "type": "Feature",
    "geometry": {
       "type": "Point",
       "coordinates":  [ -112.9735,37.3 ]
    },
    "properties": {
    "Name":" Zion"
    }
  },
  {
    "type": "Feature",
    "geometry": {
       "type": "Point",
       "coordinates":  [ -107.7208,38.58167 ]
    },
    "properties": {
    "Name":" Black Canyon of the Gunnison"
    }
  },
  {
    "type": "Feature",
    "geometry": {
       "type": "Point",
       "coordinates":  [ -80.78333,33.78333 ]
    },
    "properties": {
    "Name":" Congaree"
    }
  },
  {
    "type": "Feature",
    "geometry": {
       "type": "Point",
       "coordinates":  [ -81.55701,41.20906 ]
    },
    "properties": {
    "Name":" Cuyahoga Valley"
    }
  },
  {
    "type": "Feature",
    "geometry": {
       "type": "Point",
       "coordinates":  [ -149.27258,63.62165 ]
    },
    "properties": {
    "Name":" Denali"
    }
  },
  {
    "type": "Feature",
    "geometry": {
       "type": "Point",
       "coordinates":  [ -153.2713,67.64657 ]
    },
    "properties": {
    "Name":" Gates of the Arctic"
    }
  },
  {
    "type": "Feature",
    "geometry": {
       "type": "Point",
       "coordinates":  [ -135.75584,58.41543 ]
    },
    "properties": {
    "Name":" Glacier Bay"
    }
  },
  {
    "type": "Feature",
    "geometry": {
       "type": "Point",
       "coordinates":  [ -105.55861,37.75444 ]
    },
    "properties": {
    "Name":" Great Sand Dunes"
    }
  },
  {
    "type": "Feature",
    "geometry": {
       "type": "Point",
       "coordinates":  [ -156.21039,20.71063 ]
    },
    "properties": {
    "Name":" Haleakala"
    }
  },
  {
    "type": "Feature",
    "geometry": {
       "type": "Point",
       "coordinates":  [ -155.3,19.4 ]
    },
    "properties": {
    "Name":" Hawaii Volcanoes"
    }
  },
  {
    "type": "Feature",
    "geometry": {
       "type": "Point",
       "coordinates":  [ -154.88689,58.58305 ]
    },
    "properties": {
    "Name":" Katmai"
    }
  },
  {
    "type": "Feature",
    "geometry": {
       "type": "Point",
       "coordinates":  [ -150.08632,59.85136 ]
    },
    "properties": {
    "Name":" Kenai Fjords"
    }
  },
  {
    "type": "Feature",
    "geometry": {
       "type": "Point",
       "coordinates":  [ -159.13696,67.34409 ]
    },
    "properties": {
    "Name":" Kobuk Valley"
    }
  },
  {
    "type": "Feature",
    "geometry": {
       "type": "Point",
       "coordinates":  [ -154.32394,60.19943 ]
    },
    "properties": {
    "Name":" Lake Clark"
    }
  },
  {
    "type": "Feature",
    "geometry": {
       "type": "Point",
       "coordinates":  [ -143.2166,61.24284 ]
    },
    "properties": {
    "Name":" Wrangell-St. Elias"
    }
  },
  {
    "type": "Feature",
    "geometry": {
       "type": "Point",
       "coordinates":  [ -115.55,51.166667 ]
    },
    "properties": {
    "Name":"Banff National Park"
    }
  },
  {
    "type": "Feature",
    "geometry": {
       "type": "Point",
       "coordinates":  [ -112.870833,53.592778 ]
    },
    "properties": {
    "Name":"Elk Island National Park"
    }
  },
  {
    "type": "Feature",
    "geometry": {
       "type": "Point",
       "coordinates":  [ -118.082222,52.873056 ]
    },
    "properties": {
    "Name":"Jasper National Park"
    }
  },
  {
    "type": "Feature",
    "geometry": {
       "type": "Point",
       "coordinates":  [ -113.915278,49.045833 ]
    },
    "properties": {
    "Name":"Waterton Lakes National Park"
    }
  },
  {
    "type": "Feature",
    "geometry": {
       "type": "Point",
       "coordinates":  [ -112.986389,59.390833 ]
    },
    "properties": {
    "Name":"Wood Buffalo National Park"
    }
  },
  {
    "type": "Feature",
    "geometry": {
       "type": "Point",
       "coordinates":  [ -117.518611,51.3 ]
    },
    "properties": {
    "Name":"Glacier National Park"
    }
  },
  {
    "type": "Feature",
    "geometry": {
       "type": "Point",
       "coordinates":  [ -123.447778,48.850556 ]
    },
    "properties": {
    "Name":"Gulf Islands National Park Reserve"
    }
  },
  {
    "type": "Feature",
    "geometry": {
       "type": "Point",
       "coordinates":  [ -131.471111,52.389167 ]
    },
    "properties": {
    "Name":"Gwaii Haanas Park Reserve and Haida Heritage Site"
    }
  },
  {
    "type": "Feature",
    "geometry": {
       "type": "Point",
       "coordinates":  [ -116.049167,50.883056 ]
    },
    "properties": {
    "Name":"Kootenay National Park"
    }
  },
  {
    "type": "Feature",
    "geometry": {
       "type": "Point",
       "coordinates":  [ -118.065556,51.085833 ]
    },
    "properties": {
    "Name":"Mount Revelstoke National Park"
    }
  },
  {
    "type": "Feature",
    "geometry": {
       "type": "Point",
       "coordinates":  [ -124.769167,48.636111 ]
    },
    "properties": {
    "Name":"Pacific Rim National Park Reserve"
    }
  },
  {
    "type": "Feature",
    "geometry": {
       "type": "Point",
       "coordinates":  [ -116.486667,51.395278 ]
    },
    "properties": {
    "Name":"Yoho National Park"
    }
  },
  {
    "type": "Feature",
    "geometry": {
       "type": "Point",
       "coordinates":  [ -63.100556,58.672222 ]
    },
    "properties": {
    "Name":"Torngat Mountains National Park Reserve"
    }
  },
  {
    "type": "Feature",
    "geometry": {
       "type": "Point",
       "coordinates":  [ -100.036111,50.863889 ]
    },
    "properties": {
    "Name":"Riding Mountain National Park"
    }
  },
  {
    "type": "Feature",
    "geometry": {
       "type": "Point",
       "coordinates":  [ -92.670278,57.246389 ]
    },
    "properties": {
    "Name":"Wapusk National Park"
    }
  },
  {
    "type": "Feature",
    "geometry": {
       "type": "Point",
       "coordinates":  [ -64.953889,45.595278 ]
    },
    "properties": {
    "Name":"Fundy National Park"
    }
  },
  {
    "type": "Feature",
    "geometry": {
       "type": "Point",
       "coordinates":  [ -64.966944,46.849722 ]
    },
    "properties": {
    "Name":"Kouchibouguac National Park"
    }
  },
  {
    "type": "Feature",
    "geometry": {
       "type": "Point",
       "coordinates":  [ -57.783333,49.5 ]
    },
    "properties": {
    "Name":"Gros Morne National Park"
    }
  },
  {
    "type": "Feature",
    "geometry": {
       "type": "Point",
       "coordinates":  [ -53.996111,48.511944 ]
    },
    "properties": {
    "Name":"Terra Nova National Park"
    }
  },
  {
    "type": "Feature",
    "geometry": {
       "type": "Point",
       "coordinates":  [ -119.741389,74.0225 ]
    },
    "properties": {
    "Name":"Aulavik National Park"
    }
  },
  {
    "type": "Feature",
    "geometry": {
       "type": "Point",
       "coordinates":  [ -123.6,61.083333 ]
    },
    "properties": {
    "Name":"Nahanni National Park Reserve"
    }
  },
  {
    "type": "Feature",
    "geometry": {
       "type": "Point",
       "coordinates":  [ -123.016667,69.283333 ]
    },
    "properties": {
    "Name":"Tuktut Nogait National Park"
    }
  },
  {
    "type": "Feature",
    "geometry": {
       "type": "Point",
       "coordinates":  [ -60.811389,46.816111 ]
    },
    "properties": {
    "Name":"Cape Breton Highlands National Park"
    }
  },
  {
    "type": "Feature",
    "geometry": {
       "type": "Point",
       "coordinates":  [ -65.218333,44.399167 ]
    },
    "properties": {
    "Name":"Kejimkujik National Park"
    }
  },
  {
    "type": "Feature",
    "geometry": {
       "type": "Point",
       "coordinates":  [ -65.016667,67.883333 ]
    },
    "properties": {
    "Name":"Auyuittuq National Park"
    }
  },
  {
    "type": "Feature",
    "geometry": {
       "type": "Point",
       "coordinates":  [ -68.421389,81.563889 ]
    },
    "properties": {
    "Name":"Quttinirpaaq National Park"
    }
  },
  {
    "type": "Feature",
    "geometry": {
       "type": "Point",
       "coordinates":  [ -78.434444,72.340556 ]
    },
    "properties": {
    "Name":"Sirmilik National Park"
    }
  },
  {
    "type": "Feature",
    "geometry": {
       "type": "Point",
       "coordinates":  [ -87.305556,65.341667 ]
    },
    "properties": {
    "Name":"Ukkusiksalik National Park"
    }
  },
  {
    "type": "Feature",
    "geometry": {
       "type": "Point",
       "coordinates":  [ -81.614167,45.238889 ]
    },
    "properties": {
    "Name":"Bruce Peninsula National Park"
    }
  },
  {
    "type": "Feature",
    "geometry": {
       "type": "Point",
       "coordinates":  [ -79.874722,44.877778 ]
    },
    "properties": {
    "Name":"Georgian Bay Islands National Park"
    }
  },
  {
    "type": "Feature",
    "geometry": {
       "type": "Point",
       "coordinates":  [ -82.517778,41.964167 ]
    },
    "properties": {
    "Name":"Point Pelee National Park"
    }
  },
  {
    "type": "Feature",
    "geometry": {
       "type": "Point",
       "coordinates":  [ -85.916389,48.033611 ]
    },
    "properties": {
    "Name":"Pukaskwa National Park"
    }
  },
  {
    "type": "Feature",
    "geometry": {
       "type": "Point",
       "coordinates":  [ -75.873056,44.414444 ]
    },
    "properties": {
    "Name":"St. Lawrence Islands National Park"
    }
  },
  {
    "type": "Feature",
    "geometry": {
       "type": "Point",
       "coordinates":  [ -63.075,46.416667 ]
    },
    "properties": {
    "Name":"Prince Edward Island National Park"
    }
  },
  {
    "type": "Feature",
    "geometry": {
       "type": "Point",
       "coordinates":  [ -64.290556,48.823889 ]
    },
    "properties": {
    "Name":"Forillon National Park"
    }
  },
  {
    "type": "Feature",
    "geometry": {
       "type": "Point",
       "coordinates":  [ -72.856111,46.808056 ]
    },
    "properties": {
    "Name":"La Mauricie National Park"
    }
  },
  {
    "type": "Feature",
    "geometry": {
       "type": "Point",
       "coordinates":  [ -63.576667,50.254722 ]
    },
    "properties": {
    "Name":"Mingan Archipelago National Park Reserve"
    }
  },
  {
    "type": "Feature",
    "geometry": {
       "type": "Point",
       "coordinates":  [ -107.425833,49.176944 ]
    },
    "properties": {
    "Name":"Grasslands National Park"
    }
  },
  {
    "type": "Feature",
    "geometry": {
       "type": "Point",
       "coordinates":  [ -106.233611,53.995833 ]
    },
    "properties": {
    "Name":"Prince Albert National Park"
    }
  },
  {
    "type": "Feature",
    "geometry": {
       "type": "Point",
       "coordinates":  [ -139.525,69.519722 ]
    },
    "properties": {
    "Name":"Ivvavik National Park"
    }
  },
  {
    "type": "Feature",
    "geometry": {
       "type": "Point",
       "coordinates":  [ -137.510278,60.753056 ]
    },
    "properties": {
    "Name":"Kluane National Park and Reserve"
    }
  },
  {
    "type": "Feature",
    "geometry": {
       "type": "Point",
       "coordinates":  [ -140.0475,68.306944 ]
    },
    "properties": {
    "Name":"Vuntut National Park"
    }
  }
]
}